[
  {
    "name": "Arizona Department of Economic Security (DES) Homeless Services",
    "description": "The DES Homeless Coordination Office contracts with nonprofit and local government entities to provide rapid rehousing, emergency shelter, homeless prevention, and street outreach services throughout Arizona, including Jerome.",
    "website": "https://des.az.gov/homeless",
    "phone": "211",
    "email": "",
    "address": "",
    "city": "Jerome",
    "county": "Yavapai",
    "state": "Arizona",
    "zip": "86331",
    "services": [
      "Rapid Rehousing",
      "Emergency Shelter",
      "Homeless Prevention",
      "Street Outreach"
    ],
    "target_groups": [
      "Homeless Individuals"
    ],
    "service_area": "Statewide",
    "hours": "Varies by program",
    "eligibility": "Individuals and families experiencing homelessness or at risk of homelessness",
    "documents_required": "Varies by program",
    "fees": "None",
    "languages": "English, Spanish, translation services available",
    "accessibility": "Varies by location",
    "last_updated": "2025-06-05",
    "group": "",
    "category": "",
    "contactInfo": "",
    "serviceArea": "",
    "notes": "",
    "languageSupport": ""
  },
  {
    "name": "Stepping Stones Agencies",
    "description": "Since 1980, Stepping Stones Agencies has provided 24/7/365 advocacy services, including safe shelter, to adults and children affected by domestic violence, sexual assault, and other forms of victimization in West Yavapai County, Arizona.",
    "website": "https://steppingstonesaz.org/",
    "phone": "928-445-4673",
    "email": "",
    "address": "",
    "city": "Jerome",
    "county": "Yavapai",
    "state": "Arizona",
    "zip": "86331",
    "services": [
      "Safe Shelter",
      "24/7 Advocacy",
      "Support Services",
      "Crisis Intervention"
    ],
    "target_groups": [
      "Domestic Violence Victims"
    ],
    "service_area": "West Yavapai County",
    "hours": "24/7/365",
    "eligibility": "Adults and children affected by domestic violence, sexual assault, and other forms of victimization",
    "documents_required": "None specified",
    "fees": "None",
    "languages": "English",
    "accessibility": "Not specified",
    "last_updated": "2025-06-05",
    "group": "",
    "category": "",
    "contactInfo": "",
    "serviceArea": "",
    "notes": "",
    "languageSupport": ""
  },
  {
    "name": "Arizona Coalition to End Sexual and Domestic Violence (ACESDV)",
    "description": "Statewide coalition providing support, resources, and referrals for sexual and domestic violence survivors throughout Arizona.",
    "website": "https://acesdv.org/",
    "phone": "602-279-2980",
    "email": "",
    "address": "",
    "city": "Jerome",
    "county": "Yavapai",
    "state": "Arizona",
    "zip": "86331",
    "services": [
      "Helpline",
      "Referrals to Local Programs",
      "Training",
      "Awareness Campaigns"
    ],
    "target_groups": [
      "Domestic Violence Victims"
    ],
    "service_area": "Statewide",
    "hours": "Helpline: Mon 8:30-5, Tues 8:30-7, Wed-Fri 8:30-5",
    "eligibility": "Sexual and domestic violence survivors",
    "documents_required": "None specified",
    "fees": "None",
    "languages": "English, Spanish via Arizona Relay Service 7-1-1",
    "accessibility": "Not specified",
    "last_updated": "2025-06-05",
    "group": "",
    "category": "",
    "contactInfo": "",
    "serviceArea": "",
    "notes": "",
    "languageSupport": ""
  },
  {
    "name": "Arizona Department of Veterans' Services (ADVS)",
    "description": "State-funded agency committed to serving Arizona veterans, service members, and their families by ensuring they receive high-quality services.",
    "website": "https://dvs.az.gov/",
    "phone": "866-429-8387",
    "email": "",
    "address": "",
    "city": "Jerome",
    "county": "Yavapai",
    "state": "Arizona",
    "zip": "86331",
    "services": [
      "Benefits Assistance",
      "State Veteran Homes",
      "Military Family Relief Fund",
      "Veterans' Memorial Cemeteries",
      "Resource Connection"
    ],
    "target_groups": [
      "Veterans"
    ],
    "service_area": "Statewide",
    "hours": "Varies by service",
    "eligibility": "Arizona veterans, service members, and their families",
    "documents_required": "Varies by service",
    "fees": "Varies by service",
    "languages": "English",
    "accessibility": "Varies by location",
    "last_updated": "2025-06-05",
    "group": "",
    "category": "",
    "contactInfo": "",
    "serviceArea": "",
    "notes": "",
    "languageSupport": ""
  },
  {
    "name": "Teen Lifeline",
    "description": "Crisis line for teenagers where callers can talk to trained peer counselors about any problem or issue.",
    "website": "https://teenlifeline.org/",
    "phone": "602-248-8336",
    "email": "",
    "address": "",
    "city": "Jerome",
    "county": "Yavapai",
    "state": "Arizona",
    "zip": "86331",
    "services": [
      "Crisis Intervention",
      "Suicide Prevention",
      "Peer Counseling",
      "Mental Health Support"
    ],
    "target_groups": [
      "Youth & At-Risk Teens"
    ],
    "service_area": "Statewide",
    "hours": "3pm-9pm: Peer counselors; Other hours: Adult counselors",
    "eligibility": "Teenagers and young adults",
    "documents_required": "None",
    "fees": "None",
    "languages": "English",
    "accessibility": "Phone, text",
    "last_updated": "2025-06-05",
    "group": "",
    "category": "",
    "contactInfo": "",
    "serviceArea": "",
    "notes": "",
    "languageSupport": ""
  },
  {
    "name": "The Trevor Project",
    "description": "National organization providing crisis intervention and suicide prevention services to LGBTQ young people under 25.",
    "website": "https://www.thetrevorproject.org/",
    "phone": "1-866-488-7386",
    "email": "",
    "address": "",
    "city": "Jerome",
    "county": "Yavapai",
    "state": "Arizona",
    "zip": "86331",
    "services": [
      "Crisis Intervention",
      "Suicide Prevention",
      "Support Services",
      "Text and Chat Support"
    ],
    "target_groups": [
      "Youth & At-Risk Teens",
      "LGBTQ Community"
    ],
    "service_area": "National",
    "hours": "24/7",
    "eligibility": "LGBTQ young people under 25",
    "documents_required": "None",
    "fees": "None",
    "languages": "English",
    "accessibility": "Phone, text, chat",
    "last_updated": "2025-06-05",
    "group": "",
    "category": "",
    "contactInfo": "",
    "serviceArea": "",
    "notes": "",
    "languageSupport": ""
  },
  {
    "name": "211 Arizona",
    "description": "Connects individuals and families to vital services and resources throughout Arizona.",
    "website": "https://211arizona.org/",
    "phone": "211",
    "email": "",
    "address": "",
    "city": "Jerome",
    "county": "Yavapai",
    "state": "Arizona",
    "zip": "86331",
    "services": [
      "Information and Referrals",
      "Housing Resources",
      "Food Assistance",
      "Healthcare Resources",
      "Employment Resources"
    ],
    "target_groups": [
      "Low-Income Families",
      "General Public"
    ],
    "service_area": "Statewide",
    "hours": "24/7",
    "eligibility": "All Arizona residents",
    "documents_required": "None",
    "fees": "None",
    "languages": "English, Spanish, translation services available",
    "accessibility": "Phone, website",
    "last_updated": "2025-06-05",
    "group": "",
    "category": "",
    "contactInfo": "",
    "serviceArea": "",
    "notes": "",
    "languageSupport": ""
  },
  {
    "name": "Prism Network",
    "url": "https://www.mohelp.org/quad-cities-lgbtqia-resources",
    "description": "Provides support and resources for the LGBTQ+ and underserved populations in Yavapai County and Northern Arizona.",
    "address": "Northern Arizona service area",
    "contact": {
      "phone": "",
      "email": "",
      "website": "https://www.mohelp.org/quad-cities-lgbtqia-resources"
    },
    "services": [
      "LGBTQ+ support",
      "Community resources",
      "Connection to services"
    ],
    "target_groups": [
      "LGBTQ Community"
    ],
    "service_area": "Northern Arizona (including Yavapai County/Ash Fork)",
    "eligibility": "LGBTQ+ individuals and allies",
    "hours": "Varies by service",
    "languages": [
      "English"
    ],
    "accessibility": "Online resources available",
    "city": "",
    "group": "",
    "category": "",
    "contactInfo": "",
    "serviceArea": "",
    "notes": "",
    "languageSupport": "",
    "website": "",
    "county": "yavapai"
  },
  {
    "name": "BeConnected",
    "url": "https://www.mohelp.org/quad-cities-veteran-military-families-comprehensive-assistance-resources",
    "description": "Connects Arizona service members, veterans, families & helpers to information, support, and resources throughout Yavapai County.",
    "address": "Serves Yavapai County",
    "contact": {
      "phone": "866-429-8387",
      "email": "",
      "website": "https://www.mohelp.org/quad-cities-veteran-military-families-comprehensive-assistance-resources"
    },
    "services": [
      "Resources and support for veterans",
      "Connection to services",
      "Information and guidance"
    ],
    "target_groups": [
      "Veterans"
    ],
    "service_area": "Yavapai County (including Bagdad)",
    "eligibility": "Veterans, service members, and their families",
    "hours": "Monday - Friday 8:00 AM - 5:00 PM",
    "languages": [
      "English"
    ],
    "accessibility": "Free services",
    "city": "",
    "group": "",
    "category": "",
    "contactInfo": "",
    "serviceArea": "",
    "notes": "",
    "languageSupport": "",
    "website": "",
    "county": "yavapai"
  },
  {
    "name": "Bagdad Community Food Bank",
    "url": "https://bagdadaztown.com/community",
    "description": "Local food bank providing food assistance to Bagdad residents in need.",
    "address": "Bagdad, AZ",
    "contact": {
      "phone": "",
      "email": "",
      "website": "https://bagdadaztown.com/community"
    },
    "services": [
      "Food assistance",
      "Community support"
    ],
    "target_groups": [
      "Low-Income Families"
    ],
    "service_area": "Bagdad",
    "eligibility": "Bagdad residents in need",
    "hours": "Contact for hours",
    "languages": [
      "English"
    ],
    "accessibility": "Local community resource",
    "city": "Bagdad",
    "group": "",
    "category": "",
    "contactInfo": "",
    "serviceArea": "",
    "notes": "",
    "languageSupport": "",
    "website": "",
    "county": "yavapai"
  },
  {
    "name": "Foothills Caring Corp",
    "url": "https://foothillsfoodbank.com/get-help/",
    "description": "Partners with Foothills Food Bank to provide home delivery of food baskets to seniors who have transportation challenges in the Black Canyon City area.",
    "address": "Serves Black Canyon City area",
    "contact": {
      "phone": "",
      "email": "",
      "website": "https://foothillsfoodbank.com/get-help/"
    },
    "services": [
      "Home delivery of food baskets",
      "Senior support"
    ],
    "target_groups": [
      "Seniors & Disabled"
    ],
    "service_area": "Black Canyon City area",
    "eligibility": "Seniors with transportation challenges",
    "hours": "Contact for details",
    "languages": [
      "English"
    ],
    "accessibility": "Home delivery service",
    "city": "Black Canyon City",
    "group": "",
    "category": "",
    "contactInfo": "",
    "serviceArea": "",
    "notes": "",
    "languageSupport": "",
    "website": "",
    "county": "yavapai"
  },
  {
    "name": "Foothills Food Bank & Resource Center",
    "url": "https://foothillsfoodbank.com/get-help/",
    "description": "Provides food assistance and resource connections to residents in Black Canyon City and surrounding areas, offering fresh food, household supplies, and limited financial support.",
    "address": "34550 S Old Black Canyon Hwy, Black Canyon City, AZ 85324",
    "contact": {
      "phone": "(623) 374-9441",
      "email": "",
      "website": "https://foothillsfoodbank.com/get-help/"
    },
    "services": [
      "Food assistance",
      "Household supplies",
      "Personal hygiene items",
      "Pet food",
      "Limited financial support",
      "Resource navigation"
    ],
    "target_groups": [
      "Low-Income Families"
    ],
    "service_area": "Black Canyon City and surrounding areas",
    "eligibility": "No proof of income or citizenship required",
    "hours": "Tue 9:00 AM-12:00 PM, Wed 3:00 PM-6:00 PM, Thu 9:00 AM-12:00 PM",
    "languages": [
      "English"
    ],
    "accessibility": "Home delivery available for seniors through partnership with Foothills Caring Corp",
    "city": "Black Canyon City",
    "group": "",
    "category": "",
    "contactInfo": "",
    "serviceArea": "",
    "notes": "",
    "languageSupport": "",
    "website": "",
    "county": "yavapai"
  },
  {
    "name": "Veterans of Foreign Wars (VFW) Post 1796",
    "url": "",
    "description": "Local VFW post serving veterans in the Black Canyon City area, providing support services, community engagement, and camaraderie for veterans.",
    "address": "34801 S Velda Rose Rd, Black Canyon City, AZ 85324",
    "contact": {
      "phone": "(623) 374-9246",
      "email": "",
      "website": ""
    },
    "services": [
      "Veteran support",
      "Community services",
      "Camaraderie",
      "Resource connections"
    ],
    "target_groups": [
      "Veterans"
    ],
    "service_area": "Black Canyon City",
    "eligibility": "Veterans",
    "hours": "Contact for hours",
    "languages": [
      "English"
    ],
    "accessibility": "Local veteran organization",
    "city": "Black Canyon City",
    "group": "",
    "category": "",
    "contactInfo": "",
    "serviceArea": "",
    "notes": "",
    "languageSupport": "",
    "website": "",
    "county": "yavapai"
  },
  {
    "name": "Manzanita Outreach / Mobile Food Pantry",
    "url": "https://www.manzanitaoutreach.org/",
    "description": "Provides emergency food assistance to residents in Clarkdale and surrounding areas through a mobile food pantry program.",
    "address": "Saint Thomas Episcopal Church, 889 1st South Street Clarkdale, AZ 86324",
    "contact": {
      "phone": "(928) 649-5772",
      "email": "info@manzanitaoutreach.org",
      "website": "https://www.manzanitaoutreach.org/"
    },
    "services": [
      "Emergency food boxes",
      "Fresh produce",
      "Household supplies"
    ],
    "target_groups": [
      "Low-Income Families"
    ],
    "service_area": "Clarkdale and Verde Valley",
    "eligibility": "Open to all in need",
    "hours": "Second and Fourth Tuesdays of each month 2 pm to 4 pm",
    "languages": [
      "English"
    ],
    "accessibility": "Mobile food pantry service",
    "city": "Clarkdale",
    "group": "",
    "category": "",
    "contactInfo": "",
    "serviceArea": "",
    "notes": "",
    "languageSupport": "",
    "website": "",
    "county": "yavapai"
  },
  {
    "name": "Northern Arizona Council of Governments (NACOG)",
    "url": "https://nacog.org/aaa/",
    "description": "Offers rent assistance and senior services to Yavapai County residents including Clarkdale",
    "address": "",
    "contact": {
      "phone": "1-877-521-3500",
      "email": "",
      "website": "https://nacog.org/aaa/"
    },
    "services": [
      "Rent assistance",
      "Senior services",
      "Medicare counseling",
      "Health & wellness programs",
      "Caregiver support",
      "Ombudsman services"
    ],
    "target_groups": [
      "Low-Income Families",
      "Seniors & Disabled"
    ],
    "service_area": "Yavapai County (including Clarkdale)",
    "eligibility": "Varies by program",
    "hours": "Monday-Friday, business hours",
    "languages": [
      "English"
    ],
    "accessibility": "Phone and in-person services",
    "city": "",
    "group": "",
    "category": "",
    "contactInfo": "",
    "serviceArea": "",
    "notes": "",
    "languageSupport": "",
    "website": "",
    "county": "yavapai"
  },
  {
    "name": "Clarkdale Parks and Recreation Youth Advisor",
    "url": "https://clarkdale.az.gov/403/Youth-Advisor",
    "description": "Program for teens in Clarkdale to make a difference in their community",
    "address": "Town of Clarkdale, Clarkdale, AZ 86324",
    "contact": {
      "phone": "",
      "email": "",
      "website": "https://clarkdale.az.gov/403/Youth-Advisor"
    },
    "services": [
      "Youth engagement",
      "Community involvement",
      "Leadership development"
    ],
    "target_groups": [
      "Youth & At-Risk Teens"
    ],
    "service_area": "Clarkdale",
    "eligibility": "Teens who live in Clarkdale between the ages of 14-17",
    "hours": "Varies by program",
    "languages": [
      "English"
    ],
    "accessibility": "Local government program",
    "city": "Clarkdale",
    "group": "",
    "category": "",
    "contactInfo": "",
    "serviceArea": "",
    "notes": "",
    "languageSupport": "",
    "website": "",
    "county": "yavapai"
  },
  {
    "name": "Congress Senior Citizens, Inc.",
    "url": "",
    "description": "Local organization providing support services to seniors in Congress",
    "address": "Congress, AZ 85332",
    "contact": {
      "phone": "",
      "email": "",
      "website": ""
    },
    "services": [
      "Senior support services",
      "Community activities",
      "Resource referrals"
    ],
    "target_groups": [
      "Seniors & Disabled",
      "Low-Income Families"
    ],
    "service_area": "Congress and surrounding areas",
    "eligibility": "Seniors in Congress area",
    "hours": "Varies",
    "languages": [
      "English"
    ],
    "accessibility": "Local community-based services",
    "city": "Congress",
    "group": "",
    "category": "",
    "contactInfo": "",
    "serviceArea": "",
    "notes": "",
    "languageSupport": "",
    "website": "",
    "county": "yavapai"
  },
  {
    "name": "Arizona Department of Economic Security - Homeless Services",
    "description": "The DES Homeless Coordination Office contracts with not for profit and local government entities to provide homeless services throughout Arizona, including Cordes Lakes. Services include Rapid Rehousing, Emergency Shelter, Homeless Prevention, and Street Outreach.",
    "website": "https://des.az.gov/homeless",
    "phone": "211",
    "email": "",
    "address": "Statewide service covering Cordes Lakes, AZ",
    "groups_served": [
      "Homeless Individuals",
      "Low-Income Families"
    ],
    "services": [
      "Rapid Rehousing",
      "Emergency Shelter",
      "Homeless Prevention",
      "Street Outreach"
    ],
    "eligibility": "Individuals experiencing homelessness or at risk of becoming homeless",
    "hours": "Varies by program, call 211 for information",
    "languages": [
      "English",
      "Spanish",
      "Other languages through translation services"
    ],
    "service_area": "Statewide including Cordes Lakes, Yavapai County",
    "city": "Cordes Lakes",
    "group": "",
    "category": "",
    "contactInfo": "",
    "serviceArea": "",
    "notes": "",
    "languageSupport": "",
    "county": "yavapai"
  },
  {
    "name": "Northern Arizona Council of Governments (NACOG)",
    "description": "NACOG provides services for seniors, disabled individuals, and low-income families in Northern Arizona, including Cordes Lakes. Their Area Agency on Aging offers Medicare benefits counseling, health and wellness programs, and other support services.",
    "website": "https://nacog.org/aaa/",
    "phone": "1-877-521-3500",
    "email": "",
    "address": "Regional service covering Yavapai County including Cordes Lakes, AZ",
    "groups_served": [
      "Seniors & Disabled",
      "Low-Income Families"
    ],
    "services": [
      "Medicare Benefits Counseling",
      "Health & Wellness Programs",
      "Client Services",
      "Ombudsman Services"
    ],
    "eligibility": "Seniors, disabled individuals, and low-income residents of Northern Arizona",
    "hours": "Monday-Friday, business hours (call for specific times)",
    "languages": [
      "English",
      "Spanish (may vary by program)"
    ],
    "service_area": "Northern Arizona including Yavapai County and Cordes Lakes",
    "city": "Cordes Lakes",
    "group": "",
    "category": "",
    "contactInfo": "",
    "serviceArea": "",
    "notes": "",
    "languageSupport": "",
    "county": "yavapai"
  },
  {
    "name": "Prism Network",
    "description": "A non-partisan organization that provides an umbrella of support to members, family, friends, and allies of the LGBTQ+ community in Northern Arizona, including Cordes Lakes. They offer referrals to inclusive services, support, activities, and community connections.",
    "website": "https://www.prismaz.net",
    "phone": "928-583-3514",
    "email": "",
    "address": "303 E. Gurley St., #413, Prescott, AZ 86301",
    "groups_served": [
      "LGBTQ Community",
      "Families & Allies"
    ],
    "services": [
      "Support Services",
      "Community Connections",
      "Resource Referrals"
    ],
    "eligibility": "LGBTQ+ individuals and their families, friends, and allies in Northern Arizona",
    "hours": "Varies by program (contact for details)",
    "languages": [
      "English"
    ],
    "service_area": "Northern Arizona including Yavapai County and Cordes Lakes",
    "city": "Cordes Lakes",
    "group": "",
    "category": "",
    "contactInfo": "",
    "serviceArea": "",
    "notes": "",
    "languageSupport": "",
    "county": "yavapai"
  },
  {
    "name": "Substance Abuse Treatment Centers",
    "description": "Substance abuse treatment centers in Cordes Lakes provide essential services for individuals seeking recovery from addiction. They offer personalized care with flexible inpatient and outpatient options, utilizing evidence-based therapies and holistic approaches.",
    "website": "https://substance-abuse-treatment.com/cordes-lakes/substance-abuse-centers-near-me-cordes-lakes-az/",
    "phone": "877-862-0074",
    "email": "info@substance-abuse-centers.com",
    "address": "Serving Cordes Lakes, AZ 86333",
    "groups_served": [
      "Substance Abuse Recovery"
    ],
    "services": [
      "Inpatient Treatment",
      "Outpatient Treatment",
      "Medical Detox",
      "Therapy",
      "Medication Management",
      "Aftercare Planning"
    ],
    "eligibility": "Individuals seeking recovery from substance abuse and addiction",
    "hours": "24/7 helpline available",
    "languages": [
      "English"
    ],
    "service_area": "Cordes Lakes and surrounding areas in Yavapai County",
    "city": "Cordes Lakes",
    "group": "",
    "category": "",
    "contactInfo": "",
    "serviceArea": "",
    "notes": "",
    "languageSupport": "",
    "county": "yavapai"
  },
  {
    "name": "Catholic Charities - Cottonwood Office",
    "description": "Catholic Charities provides support services for individuals experiencing homelessness in Cottonwood. They offer case management, resources, local connections, and help creating plans to find permanent housing solutions.",
    "website": "https://www.catholiccharitiesaz.org/cottonwood/homeless",
    "phone": "928-634-4254",
    "email": "",
    "address": "736 N. Main St, Cottonwood, AZ 86326",
    "groups_served": [
      "Homeless Individuals",
      "Low-Income Families"
    ],
    "services": [
      "Case Management",
      "Resource Referrals",
      "Housing Assistance",
      "Permanent Housing Solutions"
    ],
    "eligibility": "Individuals experiencing homelessness or at risk of homelessness",
    "hours": "Monday-Friday (call for specific hours)",
    "languages": [
      "English",
      "Spanish (may vary)"
    ],
    "service_area": "Cottonwood and surrounding areas in Yavapai County",
    "city": "Cottonwood",
    "group": "",
    "category": "",
    "contactInfo": "",
    "serviceArea": "",
    "notes": "",
    "languageSupport": "",
    "county": "yavapai"
  },
  {
    "name": "Old Town Mission - Homeless Resource Center",
    "description": "The Homeless Resource Center at Old Town Mission provides essential services for homeless individuals and families in Cottonwood. They offer showers, meals, survival supplies, and a safe, supportive environment to help people move towards stability and self-sufficiency.",
    "website": "https://www.oldtownmission.org/homeless-resource-center",
    "phone": "928-634-7869",
    "email": "",
    "address": "116 E Pinal St, Cottonwood, AZ 86326",
    "groups_served": [
      "Homeless Individuals",
      "Low-Income Families"
    ],
    "services": [
      "Showers",
      "Meals",
      "Survival Supplies",
      "Resource Referrals",
      "Supportive Environment"
    ],
    "eligibility": "Individuals and families experiencing homelessness or at risk of homelessness",
    "hours": "Monday-Friday (call for specific hours)",
    "languages": [
      "English"
    ],
    "service_area": "Cottonwood and surrounding Verde Valley area",
    "city": "Cottonwood",
    "group": "",
    "category": "",
    "contactInfo": "",
    "serviceArea": "",
    "notes": "",
    "languageSupport": "",
    "county": "yavapai"
  },
  {
    "name": "Verde Valley Sanctuary",
    "description": "The Verde Valley Sanctuary offers a safe haven for victims of family violence and sexual assault in Cottonwood and the Verde Valley area. They provide emergency shelter, community outreach, advocacy services, and a 24-hour crisis hotline.",
    "website": "https://verdevalleysanctuary.org/",
    "phone": "928-634-2511",
    "email": "",
    "address": "601 W. Mingus Ave, Cottonwood, AZ 86325",
    "groups_served": [
      "Domestic Violence Victims",
      "Sexual Assault Survivors",
      "Families"
    ],
    "services": [
      "Emergency Shelter",
      "24-Hour Crisis Hotline",
      "Community Based Advocacy",
      "Safety Planning",
      "Case Management",
      "Support Groups"
    ],
    "eligibility": "Victims of domestic violence and sexual assault, and their children",
    "hours": "24/7 Hotline: 928-634-2511 or 1-800-930-7233; Office: Monday-Friday (call for specific hours)",
    "languages": [
      "English",
      "Spanish (may vary)"
    ],
    "service_area": "Cottonwood and Verde Valley area",
    "city": "Cottonwood",
    "group": "",
    "category": "",
    "contactInfo": "",
    "serviceArea": "",
    "notes": "",
    "languageSupport": "",
    "county": "yavapai"
  },
  {
    "name": "Verde Valley Homeless Coalition",
    "description": "The Verde Valley Homeless Coalition provides services for homeless individuals in Cottonwood and the Verde Valley area. They operate a day use center and emergency overnight shelter, offering support and resources to help individuals experiencing homelessness.",
    "website": "https://verdevalleyhomelesscoalition.com/",
    "phone": "928-641-4298",
    "email": "info@verdevalleyhomelesscoalition.com",
    "address": "654 N. Main Street, Cottonwood, AZ",
    "groups_served": [
      "Homeless Individuals",
      "Low-Income Families"
    ],
    "services": [
      "Day Use Center",
      "Emergency Overnight Shelter",
      "Resource Referrals",
      "Support Services"
    ],
    "eligibility": "Individuals experiencing homelessness in the Verde Valley area",
    "hours": "Call for current hours of operation",
    "languages": [
      "English"
    ],
    "service_area": "Cottonwood and Verde Valley area",
    "city": "Cottonwood",
    "group": "",
    "category": "",
    "contactInfo": "",
    "serviceArea": "",
    "notes": "",
    "languageSupport": "",
    "county": "yavapai"
  },
  {
    "name": "Arizona Department of Economic Security",
    "description": "The Arizona Department of Economic Security provides various support services for people with disabilities, seniors, and low-income families in Dewey-Humboldt. Their AZ Links program serves as Arizona's Aging and Disability Resource Center.",
    "website": "https://des.az.gov/services/disabilities/developmental-disabilities/community-resources-parents-family-members-and-caregivers/community-local-resource-locators",
    "phone": "844-770-9500",
    "email": "",
    "address": "1789 W. Jefferson, Phoenix, AZ 85007",
    "groups_served": [
      "Seniors & Disabled",
      "Low-Income Families"
    ],
    "services": [
      "Resource Referrals",
      "Disability Services",
      "Aging Services",
      "Financial Assistance"
    ],
    "eligibility": "Arizona residents with disabilities, seniors, and low-income families",
    "hours": "Monday-Friday, 8:00 AM - 5:00 PM",
    "languages": [
      "English",
      "Spanish",
      "Multiple languages through translation services"
    ],
    "service_area": "Statewide including Yavapai County and Dewey-Humboldt",
    "city": "Dewey Humboldt",
    "group": "",
    "category": "",
    "contactInfo": "",
    "serviceArea": "",
    "notes": "",
    "languageSupport": "",
    "county": "yavapai"
  },
  {
    "name": "Veterans Therapists in Dewey",
    "description": "A network of licensed professional counselors and therapists in Dewey-Humboldt who specialize in serving veterans and military personnel. These therapists offer trauma-informed care, PTSD treatment, and other mental health services specifically tailored to veterans' needs.",
    "website": "https://www.psychologytoday.com/us/therapists/az/dewey?category=veterans",
    "phone": "Various (see individual therapist listings)",
    "email": "",
    "address": "Various locations in Dewey-Humboldt, AZ",
    "groups_served": [
      "Veterans"
    ],
    "services": [
      "Mental Health Counseling",
      "PTSD Treatment",
      "Trauma Therapy",
      "EMDR Therapy",
      "Couples Counseling"
    ],
    "eligibility": "Veterans, military personnel, and their families",
    "hours": "Varies by therapist",
    "languages": [
      "English"
    ],
    "service_area": "Dewey-Humboldt and surrounding areas in Yavapai County",
    "city": "Dewey Humboldt",
    "group": "",
    "category": "",
    "contactInfo": "",
    "serviceArea": "",
    "notes": "",
    "languageSupport": "",
    "county": "yavapai"
  }
]